{
  "type": "FeatureCollection",
  "features": [
    {
      "type": "Feature",
      "properties": {
        "name": "Headquarters",
        "street": "10710 Gilroy Road",
        "city": "Hunt Valley",
        "state": "MD",
        "zip": 21031
      },
      "geometry": {
        "type": "Point",
        "coordinates": [
          -76.66148530000001,
          39.4894521
        ]
      }
    },
    {
      "type": "Feature",
      "properties": {
        "name": "Dover, DE",
        "street": "4134 N. Dupont Highway",
        "city": "Dover",
        "state": "DE",
        "zip": 19901
      },
      "geometry": {
        "type": "Point",
        "coordinates": [
          -75.45777749999999,
          39.2081349
        ]
      }
    },
    {
      "type": "Feature",
      "properties": {
        "name": "New Cumberland, PA",
        "street": "200 Airport Road, Capital City Airport",
        "city": "New Cumberland",
        "state": "PA",
        "zip": 17070
      },
      "geometry": {
        "type": "Point",
        "coordinates": [
          -76.860565,
          40.1976672
        ]
      }
    },
    {
      "type": "Feature",
      "properties": {
        "name": "Fairfax, VA (includes Waste Water Management, a Division of Century Engineering)",
        "street": "2820 Dorr Avenue, Suite 200",
        "city": "Fairfax",
        "state": "VA",
        "zip": 22031
      },
      "geometry": {
        "type": "Point",
        "coordinates": [
          -77.2577571,
          38.864187
        ]
      }
    },
    {
      "type": "Feature",
      "properties": {
        "name": "Oakland, MD",
        "street": "10 North Third Street",
        "city": "Oakland",
        "state": "MD",
        "zip": 21550
      },
      "geometry": {
        "type": "Point",
        "coordinates": [
          -79.4253776,
          39.37584200000001
        ]
      }
    },
    {
      "type": "Feature",
      "properties": {
        "name": "Newark, DE",
        "street": "Plaza 273, 56 W. Main Street, Suite 100-A",
        "city": "Newark",
        "state": "DE",
        "zip": 19702
      },
      "geometry": {
        "type": "Point",
        "coordinates": [
          -75.7487779,
          39.6203775
        ]
      }
    },
    {
      "type": "Feature",
      "properties": {
        "name": "Conshohocken, PA",
        "street": "20 Ash Street, Suite 370",
        "city": "Conshohocken",
        "state": "PA",
        "zip": 19428
      },
      "geometry": {
        "type": "Point",
        "coordinates": [
          -75.3004009,
          40.08243590000001
        ]
      }
    },
    {
      "type": "Feature",
      "properties": {
        "name": "Nittany Engineering & Associates, a Division of Century Engineering",
        "street": "2836 Earlystown Road, Suite 1",
        "city": "Centre Hall",
        "state": "PA",
        "zip": 16828
      },
      "geometry": {
        "type": "Point",
        "coordinates": [
          -77.67651839999999,
          40.8394295
        ]
      }
    },
    {
      "type": "Feature",
      "properties": {
        "name": "Nittany Engineering & Associates, a Division of Century Engineering",
        "street": "55 Pierce Lane, Suite 301",
        "city": "Montoursville",
        "state": "PA",
        "zip": 17754
      },
      "geometry": {
        "type": "Point",
        "coordinates": [
          -76.8951551,
          41.2680199
        ]
      }
    },
    {
      "type": "Feature",
      "properties": {
        "name": "Nittany Engineering & Associates, a Division of Century Engineering",
        "street": "26 S. Second Street, Suite 102",
        "city": "Clearfield",
        "state": "PA",
        "zip": 16830
      },
      "geometry": {
        "type": "Point",
        "coordinates": [
          -78.4524591,
          41.0799286
        ]
      }
    },
    {
      "type": "Feature",
      "properties": {
        "name": "Interstate Acquisition Services, a Division of Century Engineering",
        "street": "1100 Liberty Avenue, Suite E-205",
        "city": "Pittsburgh",
        "state": "PA",
        "zip": 15222
      },
      "geometry": {
        "type": "Point",
        "coordinates": [
          -79.9933976,
          40.4475255
        ]
      }
    },
    {
      "type": "Feature",
      "properties": {
        "name": "Interstate Acquisition Services, a division of Century Engineering, Inc.",
        "street": "5 Interplex Drive, Suite 205",
        "city": "Trevose",
        "state": "PA",
        "zip": "19053-6968"
      },
      "geometry": {
        "type": "Point",
        "coordinates": [
          -74.9793243,
          40.1457
        ]
      }
    },
    {
      "type": "Feature",
      "properties": {
        "name": "Interstate Acquisition Services, a division of Century Engineering, Inc.",
        "street": "10 Zions Church Road, Suite 204",
        "city": "Shoemakersville",
        "state": "PA",
        "zip": "19555-9500"
      },
      "geometry": {
        "type": "Point",
        "coordinates": [
          -75.9347113,
          40.4879331
        ]
      }
    },
    {
      "type": "Feature",
      "properties": {
        "name": "Interstate Acquisition Services, a division of Century Engineering, Inc.",
        "street": "200 North Front Street, Suites 102-103",
        "city": "Philipsburg",
        "state": "PA",
        "zip": 16866
      },
      "geometry": {
        "type": "Point",
        "coordinates": [
          -78.1792434,
          40.8926307
        ]
      }
    }
  ]
}