{
  "type": "FeatureCollection",
  "features": [
    {
      "type": "Feature",
      "properties": {
        "name": "Headquarters",
        "street": "10710 Gilroy Road",
        "city": "Hunt Valley",
        "state": "MD",
        "zip": 21031
      },
      "geometry": {
        "type": "Point",
        "coordinates": [
          -76.6633974,
          39.4768813
        ]
      }
    },
    {
      "type": "Feature",
      "properties": {
        "name": "Dover, DE",
        "street": "550 Bay Road",
        "city": "Dover",
        "state": "DE",
        "zip": 19901
      },
      "geometry": {
        "type": "Point",
        "coordinates": [
          -75.5102302,
          39.1544719
        ]
      }
    },
    {
      "type": "Feature",
      "properties": {
        "name": "New Cumberland, PA",
        "street": "200 Airport Road, Capital City Airport",
        "city": "New Cumberland",
        "state": "PA",
        "zip": 17070
      },
      "geometry": {
        "type": "Point",
        "coordinates": [
          -76.85060969999999,
          40.2177006
        ]
      }
    },
    {
      "type": "Feature",
      "properties": {
        "name": "Fairfax, VA (includes Waste Water Management, a Division of Century Engineering)",
        "street": "2820 Dorr Avenue, Suite 200",
        "city": "Fairfax",
        "state": "VA",
        "zip": 22031
      },
      "geometry": {
        "type": "Point",
        "coordinates": [
          -77.2347278,
          38.8762342
        ]
      }
    },
    {
      "type": "Feature",
      "properties": {
        "name": "Oakland, MD",
        "street": "10 North Third Street",
        "city": "Oakland",
        "state": "MD",
        "zip": 21550
      },
      "geometry": {
        "type": "Point",
        "coordinates": [
          -79.40570040000001,
          39.4108196
        ]
      }
    },
    {
      "type": "Feature",
      "properties": {
        "name": "Newark, DE",
        "street": "Plaza 273, 56 W. Main Street, Suite 100-A",
        "city": "Newark",
        "state": "DE",
        "zip": 19702
      },
      "geometry": {
        "type": "Point",
        "coordinates": [
          -75.6658107,
          39.6669818
        ]
      }
    },
    {
      "type": "Feature",
      "properties": {
        "name": "Conshohocken, PA",
        "street": "20 Ash Street, Suite 370",
        "city": "Conshohocken",
        "state": "PA",
        "zip": 19428
      },
      "geometry": {
        "type": "Point",
        "coordinates": [
          -75.3041368,
          40.0709248
        ]
      }
    },
    {
      "type": "Feature",
      "properties": {
        "name": "Nittany Engineering & Associates, a Division of Century Engineering",
        "street": "2836 Earlystown Road, Suite 1",
        "city": "Centre Hall",
        "state": "PA",
        "zip": 16828
      },
      "geometry": {
        "type": "Point",
        "coordinates": [
          -77.6770999,
          40.8327556
        ]
      }
    },
    {
      "type": "Feature",
      "properties": {
        "name": "Nittany Engineering & Associates, a Division of Century Engineering",
        "street": "55 Pierce Lane, Suite 301",
        "city": "Montoursville",
        "state": "PA",
        "zip": 17754
      },
      "geometry": {
        "type": "Point",
        "coordinates": [
          -76.89414119999999,
          41.2457864
        ]
      }
    },
    {
      "type": "Feature",
      "properties": {
        "name": "Nittany Engineering & Associates, a Division of Century Engineering",
        "street": "26 S. Second Street, Suite 102",
        "city": "Clearfield",
        "state": "PA",
        "zip": 16830
      },
      "geometry": {
        "type": "Point",
        "coordinates": [
          -78.43782499999999,
          41.0211789
        ]
      }
    },
    {
      "type": "Feature",
      "properties": {
        "name": "Interstate Acquisition Services, a Division of Century Engineering",
        "street": "1100 Liberty Avenue, Suite E-205",
        "city": "Pittsburgh",
        "state": "PA",
        "zip": 15222
      },
      "geometry": {
        "type": "Point",
        "coordinates": [
          -79.9922608,
          40.4441942
        ]
      }
    },
    {
      "type": "Feature",
      "properties": {
        "name": "Interstate Acquisition Services, a division of Century Engineering, Inc.",
        "street": "5 Interplex Drive, Suite 205",
        "city": "Trevose",
        "state": "PA",
        "zip": "19053-6968"
      },
      "geometry": {
        "type": "Point",
        "coordinates": [
          -74.9792356,
          40.1256091
        ]
      }
    },
    {
      "type": "Feature",
      "properties": {
        "name": "Interstate Acquisition Services, a division of Century Engineering, Inc.",
        "street": "10 Zions Church Road, Suite 204",
        "city": "Shoemakersville",
        "state": "PA",
        "zip": "19555-9500"
      },
      "geometry": {
        "type": "Point",
        "coordinates": [
          -75.9704082,
          40.52209149999999
        ]
      }
    },
    {
      "type": "Feature",
      "properties": {
        "name": "Interstate Acquisition Services, a division of Century Engineering, Inc.",
        "street": "200 North Front Street, Suites 102-103",
        "city": "Philipsburg",
        "state": "PA",
        "zip": 16866
      },
      "geometry": {
        "type": "Point",
        "coordinates": [
          -78.2236192,
          40.89729699999999
        ]
      }
    },
    {
      "type": "Feature",
      "properties": {
        "name": "NXL, a division of Century Engineering, Inc.",
        "street": "114 E. Cary Street",
        "city": "Richmond",
        "state": "VA",
        "zip": 23219
      },
      "geometry": {
        "type": "Point",
        "coordinates": [
          -77.44347599999999,
          37.5414199
        ]
      }
    },
    {
      "type": "Feature",
      "properties": {
        "name": "NXL, a division of Century Engineering, Inc.",
        "city": "Christianburg",
        "state": "VA",
        "zip": 22031
      },
      "geometry": {
        "type": "Point",
        "coordinates": [
          -77.2577571,
          38.864187
        ]
      }
    }
  ]
}